$GPGGA,090042.000,4704.1251,N,00219.8580,E,1,9,1.06,145.3,M,48.0,M,,*5D
$GPRMC,090042.000,A,4704.1251,N,00219.8580,E,10.477,123.66,100218,,,A*61
$GPGGA,090043.000,4704.1239,N,00219.8616,E,1,9,1.06,145.3,M,48.0,M,,*5E
$GPRMC,090043.000,A,4704.1239,N,00219.8616,E,10.243,96.70,100218,,,A*5B
$GPGGA,090044.000,4704.1239,N,00219.8656,E,1,9,1.06,145.2,M,48.0,M,,*5C
$GPRMC,090044.000,A,4704.1239,N,00219.8656,E,11.472,71.36,100218,,,A*56
$GPGGA,090045.000,4704.1254,N,00219.8701,E,1,9,0.90,145.1,M,48.0,M,,*58
$GPRMC,090045.000,A,4704.1254,N,00219.8701,E,11.459,47.64,100218,,,A*54
$GPGGA,090046.000,4704.1280,N,00219.8737,E,1,9,0.90,143.5,M,48.0,M,,*55
$GPRMC,090046.000,A,4704.1280,N,00219.8737,E,14.597,35.31,100218,,,A*58
$GPGGA,090047.000,4704.1317,N,00219.8757,E,1,9,0.90,144.0,M,48.0,M,,*5F
$GPRMC,090047.000,A,4704.1317,N,00219.8757,E,15.511,17.46,100218,,,A*5F
$GPGGA,090048.000,4704.1361,N,00219.8773,E,1,9,0.90,143.4,M,48.0,M,,*54
$GPRMC,090048.000,A,4704.1361,N,00219.8773,E,16.528,20.98,100218,,,A*59
$GPGGA,090049.000,4704.1407,N,00219.8801,E,1,9,1.06,142.3,M,48.0,M,,*50
$GPRMC,090049.000,A,4704.1407,N,00219.8801,E,17.570,29.35,100218,,,A*57
$GPGGA,090050.000,4704.1452,N,00219.8839,E,1,9,1.06,142.8,M,48.0,M,,*58
$GPRMC,090050.000,A,4704.1452,N,00219.8839,E,19.351,31.85,100218,,,A*5D
$GPGGA,090051.000,4704.1500,N,00219.8886,E,1,9,1.06,143.3,M,48.0,M,,*51
$GPRMC,090051.000,A,4704.1500,N,00219.8886,E,21.153,35.22,100218,,,A*5C
$GPGGA,090052.000,4704.1551,N,00219.8939,E,1,9,1.06,143.9,M,48.0,M,,*59
$GPRMC,090052.000,A,4704.1551,N,00219.8939,E,22.855,38.05,100218,,,A*5A
$GPGGA,090053.000,4704.1604,N,00219.9000,E,1,9,1.06,144.5,M,48.0,M,,*52
$GPRMC,090053.000,A,4704.1604,N,00219.9000,E,25.018,39.92,100218,,,A*53
$GPGGA,090054.000,4704.1660,N,00219.9069,E,1,9,1.06,144.6,M,48.0,M,,*5B
$GPRMC,090054.000,A,4704.1660,N,00219.9069,E,27.548,41.28,100218,,,A*55
$GPGGA,090055.000,4704.1722,N,00219.9143,E,1,9,1.06,145.5,M,48.0,M,,*56
$GPRMC,090055.000,A,4704.1722,N,00219.9143,E,28.400,41.00,100218,,,A*52
$GPGGA,090056.000,4704.1783,N,00219.9219,E,1,9,1.06,146.6,M,48.0,M,,*52
$GPRMC,090056.000,A,4704.1783,N,00219.9219,E,28.476,42.91,100218,,,A*5C
$GPGGA,090057.000,4704.1844,N,00219.9296,E,1,9,1.06,147.4,M,48.0,M,,*53
$GPRMC,090057.000,A,4704.1844,N,00219.9296,E,28.877,43.33,100218,,,A*5A
$GPGGA,090058.000,4704.1904,N,00219.9376,E,1,9,1.06,148.1,M,48.0,M,,*5C
$GPRMC,090058.000,A,4704.1904,N,00219.9376,E,29.888,42.04,100218,,,A*5B
$GPGGA,090059.000,4704.1967,N,00219.9457,E,1,9,1.06,149.5,M,48.0,M,,*59
$GPRMC,090059.000,A,4704.1967,N,00219.9457,E,31.086,41.63,100218,,,A*56
$GPGGA,090100.000,4704.2031,N,00219.9543,E,1,9,1.06,149.3,M,48.0,M,,*5F
$GPRMC,090100.000,A,4704.2031,N,00219.9543,E,31.665,42.74,100218,,,A*58
$GPGGA,090101.000,4704.2099,N,00219.9630,E,1,9,1.06,150.1,M,48.0,M,,*51
$GPRMC,090101.000,A,4704.2099,N,00219.9630,E,32.653,41.53,100218,,,A*5C
$GPGGA,090102.000,4704.2168,N,00219.9723,E,1,9,1.06,150.8,M,48.0,M,,*57
$GPRMC,090102.000,A,4704.2168,N,00219.9723,E,33.914,43.43,100218,,,A*5D
$GPGGA,090103.000,4704.2236,N,00219.9819,E,1,9,1.06,151.2,M,48.0,M,,*53
$GPRMC,090103.000,A,4704.2236,N,00219.9819,E,34.210,44.25,100218,,,A*5D
$GPGGA,090104.000,4704.2305,N,00219.9918,E,1,9,1.06,151.8,M,48.0,M,,*5F
$GPRMC,090104.000,A,4704.2305,N,00219.9918,E,34.581,45.38,100218,,,A*59
$GPGGA,090105.000,4704.2371,N,00220.0025,E,1,9,1.06,152.8,M,48.0,M,,*5A
$GPRMC,090105.000,A,4704.2371,N,00220.0025,E,35.917,47.32,100218,,,A*55
$GPGGA,090106.000,4704.2436,N,00220.0138,E,1,9,1.06,153.4,M,48.0,M,,*5D
$GPRMC,090106.000,A,4704.2436,N,00220.0138,E,36.272,50.48,100218,,,A*5F
$GPGGA,090107.000,4704.2499,N,00220.0254,E,1,9,1.06,154.3,M,48.0,M,,*50
$GPRMC,090107.000,A,4704.2499,N,00220.0254,E,35.961,52.68,100218,,,A*58
$GPGGA,090108.000,4704.2559,N,00220.0371,E,1,9,1.06,154.4,M,48.0,M,,*53
$GPRMC,090108.000,A,4704.2559,N,00220.0371,E,35.706,53.44,100218,,,A*5C
$GPGGA,090109.000,4704.2618,N,00220.0490,E,1,9,0.90,153.7,M,48.0,M,,*56
$GPRMC,090109.000,A,4704.2618,N,00220.0490,E,37.179,52.56,100218,,,A*5D
$GPGGA,090110.000,4704.2677,N,00220.0614,E,1,9,1.06,153.8,M,48.0,M,,*58
$GPRMC,090110.000,A,4704.2677,N,00220.0614,E,37.223,55.71,100218,,,A*5C
$GPGGA,090111.000,4704.2734,N,00220.0741,E,1,9,1.06,154.2,M,48.0,M,,*53
$GPRMC,090111.000,A,4704.2734,N,00220.0741,E,37.289,57.18,100218,,,A*57
$GPGGA,090112.000,4704.2789,N,00220.0872,E,1,9,1.06,154.3,M,48.0,M,,*58
$GPRMC,090112.000,A,4704.2789,N,00220.0872,E,38.067,58.95,100218,,,A*5A
$GPGGA,090113.000,4704.2840,N,00220.1006,E,1,9,1.06,154.1,M,48.0,M,,*5B
$GPRMC,090113.000,A,4704.2840,N,00220.1006,E,37.371,61.65,100218,,,A*55
$GPGGA,090114.000,4704.2887,N,00220.1144,E,1,9,1.06,153.9,M,48.0,M,,*5F
$GPRMC,090114.000,A,4704.2887,N,00220.1144,E,38.439,63.61,100218,,,A*5C
$GPGGA,090115.000,4704.2930,N,00220.1285,E,1,9,1.06,153.6,M,48.0,M,,*52
$GPRMC,090115.000,A,4704.2930,N,00220.1285,E,38.263,66.34,100218,,,A*52
$GPGGA,090116.000,4704.2966,N,00220.1429,E,1,9,1.06,153.0,M,48.0,M,,*54
$GPRMC,090116.000,A,4704.2966,N,00220.1429,E,37.491,70.41,100218,,,A*53
$GPGGA,090117.000,4704.2995,N,00220.1575,E,1,9,1.06,152.0,M,48.0,M,,*50
$GPRMC,090117.000,A,4704.2995,N,00220.1575,E,37.005,73.76,100218,,,A*58
$GPGGA,090118.000,4704.3021,N,00220.1722,E,1,9,1.06,151.4,M,48.0,M,,*5F
$GPRMC,090118.000,A,4704.3021,N,00220.1722,E,37.339,74.24,100218,,,A*5C
$GPGGA,090119.000,4704.3047,N,00220.1871,E,1,9,1.06,150.4,M,48.0,M,,*56
$GPRMC,090119.000,A,4704.3047,N,00220.1871,E,37.631,73.81,100218,,,A*51
$GPGGA,090120.000,4704.3074,N,00220.2019,E,1,9,0.91,149.7,M,48.0,M,,*5D
$GPRMC,090120.000,A,4704.3074,N,00220.2019,E,37.590,74.76,100218,,,A*59
$GPGGA,090121.000,4704.3099,N,00220.2168,E,1,9,1.06,149.1,M,48.0,M,,*51
$GPRMC,090121.000,A,4704.3099,N,00220.2168,E,37.787,74.95,100218,,,A*55
$GPGGA,090122.000,4704.3125,N,00220.2317,E,1,9,0.91,148.4,M,48.0,M,,*55
$GPRMC,090122.000,A,4704.3125,N,00220.2317,E,37.631,75.49,100218,,,A*56
$GPGGA,090123.000,4704.3150,N,00220.2465,E,1,9,1.06,147.7,M,48.0,M,,*57
$GPRMC,090123.000,A,4704.3150,N,00220.2465,E,37.042,75.23,100218,,,A*59
$GPGGA,090124.000,4704.3176,N,00220.2610,E,1,9,1.06,147.3,M,48.0,M,,*50
$GPRMC,090124.000,A,4704.3176,N,00220.2610,E,36.653,74.86,100218,,,A*53
$GPGGA,090125.000,4704.3202,N,00220.2755,E,1,9,1.06,147.1,M,48.0,M,,*53
$GPRMC,090125.000,A,4704.3202,N,00220.2755,E,36.615,75.55,100218,,,A*5F
$GPGGA,090126.000,4704.3226,N,00220.2897,E,1,9,1.06,146.9,M,48.0,M,,*5E
$GPRMC,090126.000,A,4704.3226,N,00220.2897,E,35.294,76.19,100218,,,A*5E
$GPGGA,090127.000,4704.3250,N,00220.3037,E,1,9,1.06,146.7,M,48.0,M,,*53
$GPRMC,090127.000,A,4704.3250,N,00220.3037,E,35.313,75.61,100218,,,A*5F
$GPGGA,090128.000,4704.3274,N,00220.3175,E,1,9,1.06,146.7,M,48.0,M,,*5D
$GPRMC,090128.000,A,4704.3274,N,00220.3175,E,34.956,76.04,100218,,,A*5B
$GPGGA,090129.000,4704.3297,N,00220.3313,E,1,9,0.91,146.3,M,48.0,M,,*58
$GPRMC,090129.000,A,4704.3297,N,00220.3313,E,34.720,77.17,100218,,,A*59
$GPGGA,090130.000,4704.3319,N,00220.3449,E,1,9,1.06,146.6,M,48.0,M,,*55
$GPRMC,090130.000,A,4704.3319,N,00220.3449,E,34.159,76.31,100218,,,A*53
$GPGGA,090131.000,4704.3342,N,00220.3585,E,1,9,1.06,146.3,M,48.0,M,,*5E
$GPRMC,090131.000,A,4704.3342,N,00220.3585,E,34.224,76.06,100218,,,A*50
$GPGGA,090132.000,4704.3366,N,00220.3719,E,1,9,1.06,146.0,M,48.0,M,,*5F
$GPRMC,090132.000,A,4704.3366,N,00220.3719,E,33.682,75.32,100218,,,A*59
$GPGGA,090133.000,4704.3391,N,00220.3851,E,1,9,1.06,145.5,M,48.0,M,,*53
$GPRMC,090133.000,A,4704.3391,N,00220.3851,E,34.003,73.69,100218,,,A*53
$GPGGA,090134.000,4704.3418,N,00220.3983,E,1,9,1.06,145.1,M,48.0,M,,*58
$GPRMC,090134.000,A,4704.3418,N,00220.3983,E,33.239,72.36,100218,,,A*5B
$GPGGA,090135.000,4704.3445,N,00220.4115,E,1,9,1.06,144.4,M,48.0,M,,*55
$GPRMC,090135.000,A,4704.3445,N,00220.4115,E,34.435,72.73,100218,,,A*5E
$GPGGA,090136.000,4704.3473,N,00220.4251,E,1,9,1.06,143.5,M,48.0,M,,*56
$GPRMC,090136.000,A,4704.3473,N,00220.4251,E,35.064,71.77,100218,,,A*5D
$GPGGA,090137.000,4704.3503,N,00220.4385,E,1,9,1.06,143.0,M,48.0,M,,*5C
$GPRMC,090137.000,A,4704.3503,N,00220.4385,E,34.562,71.67,100218,,,A*51
$GPGGA,090138.000,4704.3533,N,00220.4521,E,1,9,1.06,143.0,M,48.0,M,,*58
$GPRMC,090138.000,A,4704.3533,N,00220.4521,E,35.733,72.44,100218,,,A*50
$GPGGA,090139.000,4704.3563,N,00220.4661,E,1,9,1.06,142.8,M,48.0,M,,*52
$GPRMC,090139.000,A,4704.3563,N,00220.4661,E,36.429,72.75,100218,,,A*5A
$GPGGA,090140.000,4704.3595,N,00220.4799,E,1,9,1.06,142.5,M,48.0,M,,*5E
$GPRMC,090140.000,A,4704.3595,N,00220.4799,E,35.854,71.06,100218,,,A*59
$GPGGA,090141.000,4704.3627,N,00220.4938,E,1,9,1.06,142.1,M,48.0,M,,*54
$GPRMC,090141.000,A,4704.3627,N,00220.4938,E,35.885,70.12,100218,,,A*5F
$GPGGA,090142.000,4704.3661,N,00220.5077,E,1,9,1.06,141.7,M,48.0,M,,*53
$GPRMC,090142.000,A,4704.3661,N,00220.5077,E,36.749,70.53,100218,,,A*54
$GPGGA,090143.000,4704.3695,N,00220.5217,E,1,9,1.06,140.8,M,48.0,M,,*53
$GPRMC,090143.000,A,4704.3695,N,00220.5217,E,36.518,68.67,100218,,,A*52
$GPGGA,090144.000,4704.3731,N,00220.5356,E,1,9,0.91,140.0,M,48.0,M,,*58
$GPRMC,090144.000,A,4704.3731,N,00220.5356,E,36.572,69.18,100218,,,A*5B
$GPGGA,090145.000,4704.3770,N,00220.5493,E,1,9,1.06,139.3,M,48.0,M,,*50
$GPRMC,090145.000,A,4704.3770,N,00220.5493,E,36.603,66.46,100218,,,A*50
$GPGGA,090146.000,4704.3811,N,00220.5630,E,1,9,1.06,138.3,M,48.0,M,,*51
$GPRMC,090146.000,A,4704.3811,N,00220.5630,E,36.590,64.30,100218,,,A*5A
$GPGGA,090147.000,4704.3854,N,00220.5765,E,1,9,1.06,137.6,M,48.0,M,,*5A
$GPRMC,090147.000,A,4704.3854,N,00220.5765,E,36.516,63.66,100218,,,A*51
$GPGGA,090148.000,4704.3898,N,00220.5895,E,1,9,1.06,137.0,M,48.0,M,,*53
$GPRMC,090148.000,A,4704.3898,N,00220.5895,E,35.146,62.96,100218,,,A*52
$GPGGA,090149.000,4704.3941,N,00220.6020,E,1,9,0.91,136.8,M,48.0,M,,*54
$GPRMC,090149.000,A,4704.3941,N,00220.6020,E,34.273,63.70,100218,,,A*5E
$GPGGA,090150.000,4704.3982,N,00220.6144,E,1,9,1.06,136.4,M,48.0,M,,*53
$GPRMC,090150.000,A,4704.3982,N,00220.6144,E,33.515,63.74,100218,,,A*5E
$GPGGA,090151.000,4704.4023,N,00220.6268,E,1,9,1.06,136.0,M,48.0,M,,*5E
$GPRMC,090151.000,A,4704.4023,N,00220.6268,E,33.703,63.76,100218,,,A*50
$GPGGA,090152.000,4704.4064,N,00220.6390,E,1,9,1.06,135.4,M,48.0,M,,*5F
$GPRMC,090152.000,A,4704.4064,N,00220.6390,E,33.420,63.68,100218,,,A*5B
$GPGGA,090153.000,4704.4105,N,00220.6509,E,1,9,1.06,135.4,M,48.0,M,,*5E
$GPRMC,090153.000,A,4704.4105,N,00220.6509,E,33.442,63.89,100218,,,A*51
$GPGGA,090154.000,4704.4144,N,00220.6630,E,1,9,1.06,135.5,M,48.0,M,,*54
$GPRMC,090154.000,A,4704.4144,N,00220.6630,E,33.033,66.44,100218,,,A*5C
$GPGGA,090155.000,4704.4178,N,00220.6755,E,1,9,0.91,135.5,M,48.0,M,,*57
$GPRMC,090155.000,A,4704.4178,N,00220.6755,E,33.019,68.31,100218,,,A*54
$GPGGA,090156.000,4704.4208,N,00220.6877,E,1,9,1.06,135.3,M,48.0,M,,*56
$GPRMC,090156.000,A,4704.4208,N,00220.6877,E,31.411,70.85,100218,,,A*54
$GPGGA,090157.000,4704.4234,N,00220.6999,E,1,9,1.07,135.0,M,48.0,M,,*5B
$GPRMC,090157.000,A,4704.4234,N,00220.6999,E,30.941,72.29,100218,,,A*56
$GPGGA,090158.000,4704.4258,N,00220.7122,E,1,9,1.06,134.5,M,48.0,M,,*52
$GPRMC,090158.000,A,4704.4258,N,00220.7122,E,31.361,73.27,100218,,,A*5C
$GPGGA,090159.000,4704.4283,N,00220.7245,E,1,9,1.07,134.0,M,48.0,M,,*53
$GPRMC,090159.000,A,4704.4283,N,00220.7245,E,31.528,72.09,100218,,,A*5F
$GPGGA,090200.000,4704.4310,N,00220.7369,E,1,9,1.06,133.8,M,48.0,M,,*56
$GPRMC,090200.000,A,4704.4310,N,00220.7369,E,32.299,71.91,100218,,,A*58
$GPGGA,090201.000,4704.4341,N,00220.7493,E,1,9,1.07,134.3,M,48.0,M,,*5C
$GPRMC,090201.000,A,4704.4341,N,00220.7493,E,33.053,70.00,100218,,,A*53
$GPGGA,090202.000,4704.4374,N,00220.7616,E,1,9,1.06,134.6,M,48.0,M,,*52
$GPRMC,090202.000,A,4704.4374,N,00220.7616,E,32.815,69.40,100218,,,A*5E
$GPGGA,090203.000,4704.4411,N,00220.7735,E,1,9,1.07,134.4,M,48.0,M,,*54
$GPRMC,090203.000,A,4704.4411,N,00220.7735,E,33.134,67.72,100218,,,A*5F
$GPGGA,090204.000,4704.4447,N,00220.7856,E,1,9,1.07,134.0,M,48.0,M,,*5E
$GPRMC,090204.000,A,4704.4447,N,00220.7856,E,32.328,67.69,100218,,,A*55
$GPGGA,090205.000,4704.4483,N,00220.7975,E,1,9,1.07,133.9,M,48.0,M,,*59
$GPRMC,090205.000,A,4704.4483,N,00220.7975,E,31.672,65.25,100218,,,A*5F
$GPGGA,090206.000,4704.4520,N,00220.8090,E,1,9,1.07,133.3,M,48.0,M,,*55
$GPRMC,090206.000,A,4704.4520,N,00220.8090,E,31.153,64.64,100218,,,A*59
$GPGGA,090207.000,4704.4557,N,00220.8203,E,1,9,1.07,132.9,M,48.0,M,,*57
$GPRMC,090207.000,A,4704.4557,N,00220.8203,E,30.957,62.57,100218,,,A*5B
$GPGGA,090208.000,4704.4601,N,00220.8310,E,1,9,1.07,132.9,M,48.0,M,,*5B
$GPRMC,090208.000,A,4704.4601,N,00220.8310,E,31.306,60.09,100218,,,A*51
$GPGGA,090209.000,4704.4649,N,00220.8412,E,1,9,1.07,132.3,M,48.0,M,,*59
$GPRMC,090209.000,A,4704.4649,N,00220.8412,E,31.119,57.76,100218,,,A*59
$GPGGA,090210.000,4704.4700,N,00220.8515,E,1,9,1.07,131.7,M,48.0,M,,*5C
$GPRMC,090210.000,A,4704.4700,N,00220.8515,E,31.187,55.09,100218,,,A*56
$GPGGA,090211.000,4704.4750,N,00220.8619,E,1,9,1.07,130.8,M,48.0,M,,*59
$GPRMC,090211.000,A,4704.4750,N,00220.8619,E,31.154,54.43,100218,,,A*5C
$GPGGA,090212.000,4704.4798,N,00220.8724,E,1,9,1.07,130.1,M,48.0,M,,*58
$GPRMC,090212.000,A,4704.4798,N,00220.8724,E,31.089,54.79,100218,,,A*5C
$GPGGA,090213.000,4704.4842,N,00220.8833,E,1,9,1.07,129.4,M,48.0,M,,*55
$GPRMC,090213.000,A,4704.4842,N,00220.8833,E,30.845,59.75,100218,,,A*54
$GPGGA,090214.000,4704.4883,N,00220.8946,E,1,9,0.91,128.9,M,48.0,M,,*5E
$GPRMC,090214.000,A,4704.4883,N,00220.8946,E,31.749,60.91,100218,,,A*5F
$GPGGA,090215.000,4704.4926,N,00220.9059,E,1,9,1.07,129.4,M,48.0,M,,*55
$GPRMC,090215.000,A,4704.4926,N,00220.9059,E,32.137,60.51,100218,,,A*56
$GPGGA,090216.000,4704.4962,N,00220.9175,E,1,9,1.07,129.6,M,48.0,M,,*5B
$GPRMC,090216.000,A,4704.4962,N,00220.9175,E,31.759,65.55,100218,,,A*56
$GPGGA,090217.000,4704.4995,N,00220.9295,E,1,9,1.07,129.5,M,48.0,M,,*5C
$GPRMC,090217.000,A,4704.4995,N,00220.9295,E,31.809,67.55,100218,,,A*5A
$GPGGA,090218.000,4704.5026,N,00220.9415,E,1,9,1.07,129.9,M,48.0,M,,*51
$GPRMC,090218.000,A,4704.5026,N,00220.9415,E,31.826,69.54,100218,,,A*59
$GPGGA,090219.000,4704.5053,N,00220.9538,E,1,9,1.07,130.6,M,48.0,M,,*5B
$GPRMC,090219.000,A,4704.5053,N,00220.9538,E,31.784,73.63,100218,,,A*5C
$GPGGA,090220.000,4704.5078,N,00220.9659,E,1,9,1.07,131.6,M,48.0,M,,*5D
$GPRMC,090220.000,A,4704.5078,N,00220.9659,E,30.938,73.36,100218,,,A*53
$GPGGA,090221.000,4704.5100,N,00220.9781,E,1,9,0.91,132.6,M,48.0,M,,*5B
$GPRMC,090221.000,A,4704.5100,N,00220.9781,E,31.156,75.88,100218,,,A*5A
$GPGGA,090222.000,4704.5119,N,00220.9901,E,1,9,1.07,133.5,M,48.0,M,,*5A
$GPRMC,090222.000,A,4704.5119,N,00220.9901,E,30.682,77.57,100218,,,A*58
$GPGGA,090223.000,4704.5132,N,00221.0022,E,1,9,1.07,134.0,M,48.0,M,,*50
$GPRMC,090223.000,A,4704.5132,N,00221.0022,E,29.992,80.62,100218,,,A*58
$GPGGA,090224.000,4704.5143,N,00221.0142,E,1,9,1.07,134.6,M,48.0,M,,*50
$GPRMC,090224.000,A,4704.5143,N,00221.0142,E,29.752,81.67,100218,,,A*58
$GPGGA,090225.000,4704.5152,N,00221.0265,E,1,9,1.07,135.0,M,48.0,M,,*50
$GPRMC,090225.000,A,4704.5152,N,00221.0265,E,30.483,83.71,100218,,,A*5D
$GPGGA,090226.000,4704.5158,N,00221.0391,E,1,9,1.07,134.9,M,48.0,M,,*5B
$GPRMC,090226.000,A,4704.5158,N,00221.0391,E,29.905,86.00,100218,,,A*56
$GPGGA,090227.000,4704.5160,N,00221.0516,E,1,9,1.07,134.6,M,48.0,M,,*57
$GPRMC,090227.000,A,4704.5160,N,00221.0516,E,29.873,88.34,100218,,,A*5C
$GPGGA,090228.000,4704.5158,N,00221.0642,E,1,9,1.07,135.0,M,48.0,M,,*56
$GPRMC,090228.000,A,4704.5158,N,00221.0642,E,30.532,92.03,100218,,,A*55
$GPGGA,090229.000,4704.5154,N,00221.0766,E,1,9,1.07,134.9,M,48.0,M,,*54
$GPRMC,090229.000,A,4704.5154,N,00221.0766,E,30.336,92.80,100218,,,A*56
$GPGGA,090230.000,4704.5147,N,00221.0893,E,1,9,1.07,134.7,M,48.0,M,,*55
$GPRMC,090230.000,A,4704.5147,N,00221.0893,E,30.698,94.60,100218,,,A*50
$GPGGA,090231.000,4704.5143,N,00221.1016,E,1,9,1.07,135.8,M,48.0,M,,*5A
$GPRMC,090231.000,A,4704.5143,N,00221.1016,E,30.667,94.01,100218,,,A*56
$GPGGA,090232.000,4704.5137,N,00221.1139,E,1,9,0.91,136.8,M,48.0,M,,*5B
$GPRMC,090232.000,A,4704.5137,N,00221.1139,E,29.922,92.98,100218,,,A*5A
$GPGGA,090233.000,4704.5132,N,00221.1260,E,1,9,1.07,137.5,M,48.0,M,,*52
$GPRMC,090233.000,A,4704.5132,N,00221.1260,E,29.528,93.51,100218,,,A*53
$GPGGA,090234.000,4704.5126,N,00221.1379,E,1,9,1.07,138.0,M,48.0,M,,*53
$GPRMC,090234.000,A,4704.5126,N,00221.1379,E,29.332,94.23,100218,,,A*57
$GPGGA,090235.000,4704.5121,N,00221.1493,E,1,9,1.07,138.4,M,48.0,M,,*52
$GPRMC,090235.000,A,4704.5121,N,00221.1493,E,27.218,94.05,100218,,,A*51
$GPGGA,090236.000,4704.5115,N,00221.1602,E,1,9,1.07,137.9,M,48.0,M,,*5E
$GPRMC,090236.000,A,4704.5115,N,00221.1602,E,26.666,94.80,100218,,,A*5E
$GPGGA,090237.000,4704.5109,N,00221.1707,E,1,9,1.07,138.0,M,48.0,M,,*50
$GPRMC,090237.000,A,4704.5109,N,00221.1707,E,25.255,96.66,100218,,,A*5B
$GPGGA,090238.000,4704.5102,N,00221.1805,E,1,9,1.07,138.5,M,48.0,M,,*5C
$GPRMC,090238.000,A,4704.5102,N,00221.1805,E,23.297,96.04,100218,,,A*5E
$GPGGA,090239.000,4704.5095,N,00221.1894,E,1,9,1.07,139.0,M,48.0,M,,*5E
$GPRMC,090239.000,A,4704.5095,N,00221.1894,E,22.124,98.03,100218,,,A*5B
$GPGGA,090240.000,4704.5087,N,00221.1975,E,1,9,1.07,139.6,M,48.0,M,,*5B
$GPRMC,090240.000,A,4704.5087,N,00221.1975,E,20.868,100.58,100218,,,A*65
$GPGGA,090241.000,4704.5078,N,00221.2050,E,1,9,1.07,140.0,M,48.0,M,,*5F
$GPRMC,090241.000,A,4704.5078,N,00221.2050,E,19.810,102.18,100218,,,A*6A
$GPGGA,090242.000,4704.5067,N,00221.2117,E,1,9,1.07,140.6,M,48.0,M,,*56
$GPRMC,090242.000,A,4704.5067,N,00221.2117,E,18.516,104.86,100218,,,A*6E
$GPGGA,090243.000,4704.5056,N,00221.2160,E,1,9,1.07,139.8,M,48.0,M,,*55
$GPRMC,090243.000,A,4704.5056,N,00221.2160,E,13.983,111.98,100218,,,A*6D
$GPGGA,090244.000,4704.5035,N,00221.2207,E,1,9,1.07,139.7,M,48.0,M,,*5A
$GPRMC,090244.000,A,4704.5035,N,00221.2207,E,14.607,125.86,100218,,,A*61
$GPGGA,090245.000,4704.5011,N,00221.2254,E,1,9,1.07,140.4,M,48.0,M,,*56
$GPRMC,090245.000,A,4704.5011,N,00221.2254,E,15.139,128.09,100218,,,A*61
$GPGGA,090246.000,4704.4987,N,00221.2302,E,1,9,1.07,140.4,M,48.0,M,,*50
$GPRMC,090246.000,A,4704.4987,N,00221.2302,E,14.577,122.55,100218,,,A*6B
$GPGGA,090247.000,4704.4971,N,00221.2358,E,1,9,1.07,140.4,M,48.0,M,,*57
$GPRMC,090247.000,A,4704.4971,N,00221.2358,E,14.802,108.94,100218,,,A*66
$GPGGA,090248.000,4704.4966,N,00221.2417,E,1,9,0.91,140.9,M,48.0,M,,*51
$GPRMC,090248.000,A,4704.4966,N,00221.2417,E,14.735,92.97,100218,,,A*59
$GPGGA,090249.000,4704.4974,N,00221.2479,E,1,9,1.07,141.4,M,48.0,M,,*59
$GPRMC,090249.000,A,4704.4974,N,00221.2479,E,15.583,77.70,100218,,,A*5F
$GPGGA,090250.000,4704.4996,N,00221.2532,E,1,9,1.07,141.9,M,48.0,M,,*5E
$GPRMC,090250.000,A,4704.4996,N,00221.2532,E,15.558,59.31,100218,,,A*5A
$GPGGA,090251.000,4704.5024,N,00221.2581,E,1,9,1.07,142.6,M,48.0,M,,*5A
$GPRMC,090251.000,A,4704.5024,N,00221.2581,E,16.388,51.65,100218,,,A*53
$GPGGA,090252.000,4704.5059,N,00221.2623,E,1,9,1.07,143.3,M,48.0,M,,*5C
$GPRMC,090252.000,A,4704.5059,N,00221.2623,E,16.599,42.28,100218,,,A*5C
$GPGGA,090253.000,4704.5100,N,00221.2648,E,1,9,0.91,143.4,M,48.0,M,,*54
$GPRMC,090253.000,A,4704.5100,N,00221.2648,E,15.359,30.87,100218,,,A*54
$GPGGA,090254.000,4704.5160,N,00221.2591,E,1,9,1.07,143.1,M,48.0,M,,*59
$GPRMC,090254.000,A,4704.5160,N,00221.2591,E,17.366,344.76,100218,,,A*62
$GPGGA,090255.000,4704.5207,N,00221.2558,E,1,9,0.91,143.4,M,48.0,M,,*54
$GPRMC,090255.000,A,4704.5207,N,00221.2558,E,19.029,332.19,100218,,,A*6A
$GPGGA,090256.000,4704.5254,N,00221.2520,E,1,9,1.07,143.8,M,48.0,M,,*5C
$GPRMC,090256.000,A,4704.5254,N,00221.2520,E,20.674,330.11,100218,,,A*6E
$GPGGA,090257.000,4704.5307,N,00221.2481,E,1,9,1.07,144.4,M,48.0,M,,*5B
$GPRMC,090257.000,A,4704.5307,N,00221.2481,E,21.960,336.22,100218,,,A*6F
$GPGGA,090258.000,4704.5370,N,00221.2455,E,1,9,1.07,144.8,M,48.0,M,,*51
$GPRMC,090258.000,A,4704.5370,N,00221.2455,E,23.570,344.61,100218,,,A*64
$GPGGA,090259.000,4704.5439,N,00221.2440,E,1,9,1.07,145.0,M,48.0,M,,*57
$GPRMC,090259.000,A,4704.5439,N,00221.2440,E,26.480,353.46,100218,,,A*63
$GPGGA,090300.000,4704.5514,N,00221.2433,E,1,9,1.07,145.2,M,48.0,M,,*52
$GPRMC,090300.000,A,4704.5514,N,00221.2433,E,27.732,358.56,100218,,,A*65
$GPGGA,090301.000,4704.5591,N,00221.2434,E,1,9,1.07,145.1,M,48.0,M,,*5A
$GPRMC,090301.000,A,4704.5591,N,00221.2434,E,28.316,359.73,100218,,,A*65
$GPGGA,090302.000,4704.5670,N,00221.2436,E,1,9,1.07,144.8,M,48.0,M,,*5F
$GPRMC,090302.000,A,4704.5670,N,00221.2436,E,29.019,0.99,100218,,,A*6E
$GPGGA,090303.000,4704.5752,N,00221.2442,E,1,9,1.07,144.2,M,48.0,M,,*56
$GPRMC,090303.000,A,4704.5752,N,00221.2442,E,29.585,1.36,100218,,,A*69
$GPGGA,090304.000,4704.5835,N,00221.2448,E,1,9,1.07,143.1,M,48.0,M,,*51
$GPRMC,090304.000,A,4704.5835,N,00221.2448,E,30.686,1.15,100218,,,A*63
$GPGGA,090305.000,4704.5923,N,00221.2452,E,1,9,1.07,142.6,M,48.0,M,,*5B
$GPRMC,090305.000,A,4704.5923,N,00221.2452,E,32.361,0.73,100218,,,A*60
$GPGGA,090306.000,4704.6016,N,00221.2456,E,1,9,1.07,142.0,M,48.0,M,,*56
$GPRMC,090306.000,A,4704.6016,N,00221.2456,E,34.285,0.35,100218,,,A*64
$GPGGA,090307.000,4704.6110,N,00221.2459,E,1,9,1.07,141.5,M,48.0,M,,*59
$GPRMC,090307.000,A,4704.6110,N,00221.2459,E,34.352,1.39,100218,,,A*6B
$GPGGA,090308.000,4704.6208,N,00221.2461,E,1,9,1.07,140.9,M,48.0,M,,*5A
$GPRMC,090308.000,A,4704.6208,N,00221.2461,E,36.217,1.19,100218,,,A*65
$GPGGA,090309.000,4704.6308,N,00221.2465,E,1,9,1.07,140.9,M,48.0,M,,*5E
$GPRMC,090309.000,A,4704.6308,N,00221.2465,E,35.850,2.94,100218,,,A*6D
$GPGGA,090310.000,4704.6408,N,00221.2471,E,1,9,1.07,140.3,M,48.0,M,,*5E
$GPRMC,090310.000,A,4704.6408,N,00221.2471,E,36.824,2.44,100218,,,A*6A
$GPGGA,090311.000,4704.6510,N,00221.2477,E,1,9,1.07,140.1,M,48.0,M,,*53
$GPRMC,090311.000,A,4704.6510,N,00221.2477,E,37.117,2.85,100218,,,A*60
$GPGGA,090312.000,4704.6615,N,00221.2485,E,1,9,1.07,139.0,M,48.0,M,,*54
$GPRMC,090312.000,A,4704.6615,N,00221.2485,E,38.568,2.11,100218,,,A*66
$GPGGA,090313.000,4704.6722,N,00221.2493,E,1,9,1.07,137.7,M,48.0,M,,*5E
$GPRMC,090313.000,A,4704.6722,N,00221.2493,E,38.362,1.78,100218,,,A*65
$GPGGA,090314.000,4704.6831,N,00221.2502,E,1,9,1.07,136.1,M,48.0,M,,*5A
$GPRMC,090314.000,A,4704.6831,N,00221.2502,E,40.121,2.38,100218,,,A*6B
$GPGGA,090315.000,4704.6942,N,00221.2511,E,1,9,1.07,134.8,M,48.0,M,,*57
$GPRMC,090315.000,A,4704.6942,N,00221.2511,E,40.530,2.10,100218,,,A*63
$GPGGA,090316.000,4704.7055,N,00221.2517,E,1,9,0.91,133.9,M,48.0,M,,*54
$GPRMC,090316.000,A,4704.7055,N,00221.2517,E,41.011,2.42,100218,,,A*68
$GPGGA,090317.000,4704.7168,N,00221.2523,E,1,9,1.07,133.9,M,48.0,M,,*53
$GPRMC,090317.000,A,4704.7168,N,00221.2523,E,39.860,3.43,100218,,,A*60
$GPGGA,090318.000,4704.7279,N,00221.2534,E,1,9,0.91,130.9,M,48.0,M,,*54
$GPRMC,090318.000,A,4704.7279,N,00221.2534,E,41.588,4.57,100218,,,A*6C
$GPGGA,090319.000,4704.7395,N,00221.2543,E,1,9,1.07,130.8,M,48.0,M,,*59
$GPRMC,090319.000,A,4704.7395,N,00221.2543,E,41.428,3.19,100218,,,A*68
$GPGGA,090320.000,4704.7510,N,00221.2550,E,1,9,1.07,131.0,M,48.0,M,,*53
$GPRMC,090320.000,A,4704.7510,N,00221.2550,E,41.387,1.87,100218,,,A*6C
$GPGGA,090321.000,4704.7622,N,00221.2555,E,1,9,1.07,130.6,M,48.0,M,,*52
$GPRMC,090321.000,A,4704.7622,N,00221.2555,E,41.431,0.79,100218,,,A*60
$GPGGA,090322.000,4704.7732,N,00221.2558,E,1,9,1.07,130.0,M,48.0,M,,*5A
$GPRMC,090322.000,A,4704.7732,N,00221.2558,E,39.416,359.56,100218,,,A*66
$GPGGA,090323.000,4704.7838,N,00221.2557,E,1,9,1.07,129.1,M,48.0,M,,*58
$GPRMC,090323.000,A,4704.7838,N,00221.2557,E,38.446,358.60,100218,,,A*6D
$GPGGA,090324.000,4704.7942,N,00221.2554,E,1,9,0.91,128.2,M,48.0,M,,*5C
$GPRMC,090324.000,A,4704.7942,N,00221.2554,E,37.407,358.20,100218,,,A*6B
$GPGGA,090325.000,4704.8044,N,00221.2552,E,1,9,1.07,127.5,M,48.0,M,,*5D
$GPRMC,090325.000,A,4704.8044,N,00221.2552,E,36.598,358.50,100218,,,A*6D
$GPGGA,090326.000,4704.8143,N,00221.2546,E,1,9,1.07,127.4,M,48.0,M,,*5C
$GPRMC,090326.000,A,4704.8143,N,00221.2546,E,35.431,357.47,100218,,,A*65
$GPGGA,090327.000,4704.8239,N,00221.2542,E,1,9,1.07,126.7,M,48.0,M,,*55
$GPRMC,090327.000,A,4704.8239,N,00221.2542,E,34.163,358.13,100218,,,A*63
$GPGGA,090328.000,4704.8332,N,00221.2538,E,1,9,1.07,125.7,M,48.0,M,,*5E
$GPRMC,090328.000,A,4704.8332,N,00221.2538,E,32.756,357.00,100218,,,A*60
$GPGGA,090329.000,4704.8422,N,00221.2531,E,1,9,1.07,125.0,M,48.0,M,,*57
$GPRMC,090329.000,A,4704.8422,N,00221.2531,E,31.820,356.49,100218,,,A*6F
$GPGGA,090330.000,4704.8509,N,00221.2521,E,1,9,1.07,124.3,M,48.0,M,,*54
$GPRMC,090330.000,A,4704.8509,N,00221.2521,E,31.341,353.86,100218,,,A*64
$GPGGA,090331.000,4704.8596,N,00221.2508,E,1,9,0.91,125.4,M,48.0,M,,*50
$GPRMC,090331.000,A,4704.8596,N,00221.2508,E,29.511,357.41,100218,,,A*6D
$GPGGA,090332.000,4704.8677,N,00221.2504,E,1,9,1.07,123.9,M,48.0,M,,*56
$GPRMC,090332.000,A,4704.8677,N,00221.2504,E,27.856,358.82,100218,,,A*6E
$GPGGA,090333.000,4704.8751,N,00221.2508,E,1,9,1.07,122.9,M,48.0,M,,*5F
$GPRMC,090333.000,A,4704.8751,N,00221.2508,E,26.250,359.78,100218,,,A*6F
$GPGGA,090334.000,4704.8819,N,00221.2509,E,1,9,1.07,122.3,M,48.0,M,,*50
$GPRMC,090334.000,A,4704.8819,N,00221.2509,E,23.040,358.81,100218,,,A*6B
$GPGGA,090335.000,4704.8879,N,00221.2512,E,1,9,0.91,122.4,M,48.0,M,,*54
$GPRMC,090335.000,A,4704.8879,N,00221.2512,E,20.488,359.84,100218,,,A*61
$GPGGA,090336.000,4704.8927,N,00221.2499,E,1,9,1.07,124.7,M,48.0,M,,*54
$GPRMC,090336.000,A,4704.8927,N,00221.2499,E,16.214,12.40,100218,,,A*58
$GPGGA,090337.000,4704.8971,N,00221.2502,E,1,9,1.07,126.1,M,48.0,M,,*51
$GPRMC,090337.000,A,4704.8971,N,00221.2502,E,16.578,15.46,100218,,,A*55
$GPGGA,090338.000,4704.9012,N,00221.2518,E,1,9,0.91,127.3,M,48.0,M,,*55
$GPRMC,090338.000,A,4704.9012,N,00221.2518,E,16.819,19.55,100218,,,A*58
$GPGGA,090339.000,4704.9054,N,00221.2535,E,1,9,0.91,127.1,M,48.0,M,,*5B
$GPRMC,090339.000,A,4704.9054,N,00221.2535,E,16.872,25.20,100218,,,A*54
$GPGGA,090340.000,4704.9101,N,00221.2550,E,1,9,1.07,127.9,M,48.0,M,,*51
$GPRMC,090340.000,A,4704.9101,N,00221.2550,E,16.930,13.78,100218,,,A*57
$GPGGA,090341.000,4704.9146,N,00221.2562,E,1,9,0.91,127.4,M,48.0,M,,*51
$GPRMC,090341.000,A,4704.9146,N,00221.2562,E,15.794,11.63,100218,,,A*5F
$GPGGA,090342.000,4704.9188,N,00221.2570,E,1,9,0.91,126.9,M,48.0,M,,*5F
$GPRMC,090342.000,A,4704.9188,N,00221.2570,E,14.926,7.50,100218,,,A*6C
$GPGGA,090343.000,4704.9229,N,00221.2577,E,1,9,0.91,126.4,M,48.0,M,,*5C
$GPRMC,090343.000,A,4704.9229,N,00221.2577,E,14.922,7.47,100218,,,A*60
$GPGGA,090344.000,4704.9270,N,00221.2585,E,1,9,0.91,125.8,M,48.0,M,,*55
$GPRMC,090344.000,A,4704.9270,N,00221.2585,E,14.924,7.47,100218,,,A*60
$GPGGA,090345.000,4704.9311,N,00221.2593,E,1,9,0.91,125.3,M,48.0,M,,*5E
$GPRMC,090345.000,A,4704.9311,N,00221.2593,E,14.930,7.47,100218,,,A*65
$GPGGA,090346.000,4704.9352,N,00221.2601,E,1,9,0.91,124.7,M,48.0,M,,*57
$GPRMC,090346.000,A,4704.9352,N,00221.2601,E,14.942,7.45,100218,,,A*6E
$GPGGA,090347.000,4704.9394,N,00221.2609,E,1,9,0.91,124.2,M,48.0,M,,*51
$GPRMC,090347.000,A,4704.9394,N,00221.2609,E,14.965,7.39,100218,,,A*63
$GPGGA,090348.000,4704.9436,N,00221.2616,E,1,9,0.91,123.6,M,48.0,M,,*5C
$GPRMC,090348.000,A,4704.9436,N,00221.2616,E,14.987,7.28,100218,,,A*61
$GPGGA,090349.000,4704.9478,N,00221.2624,E,1,5,1.20,123.1,M,48.0,M,,*56
$GPRMC,090349.000,A,4704.9478,N,00221.2624,E,15.012,7.25,100218,,,A*62
$GPGGA,090350.000,4704.9519,N,00221.2631,E,1,5,1.20,122.5,M,48.0,M,,*59
$GPRMC,090350.000,A,4704.9519,N,00221.2631,E,15.032,7.24,100218,,,A*6B
$GPGGA,090351.000,4704.9562,N,00221.2640,E,6,0,,122.0,M,48.0,M,,*48
$GPRMC,090351.000,V,4704.9562,N,00221.2640,E,15.063,7.41,100218,,,E*74
$GPGGA,090352.000,4704.9562,N,00221.2640,E,6,0,,122.0,M,48.0,M,,*4B
$GPRMC,090352.000,V,4704.9562,N,00221.2640,E,0.000,7.41,100218,,,E*46
$GPGGA,090353.000,4704.9927,N,00221.2314,E,1,5,1.54,117.5,M,48.0,M,,*5C
$GPRMC,090353.000,A,4704.9927,N,00221.2314,E,32.325,334.69,100218,,,A*61
$GPGGA,090354.000,4705.0016,N,00221.2257,E,1,6,1.35,115.4,M,48.0,M,,*59
$GPRMC,090354.000,A,4705.0016,N,00221.2257,E,34.897,345.50,100218,,,A*6B
$GPGGA,090355.000,4705.0085,N,00221.2174,E,1,6,1.35,115.9,M,48.0,M,,*5D
$GPRMC,090355.000,A,4705.0085,N,00221.2174,E,36.543,345.57,100218,,,A*63
$GPGGA,090356.000,4705.0178,N,00221.2124,E,1,6,1.35,116.2,M,48.0,M,,*50
$GPRMC,090356.000,A,4705.0178,N,00221.2124,E,38.058,346.01,100218,,,A*67
$GPGGA,090357.000,4705.0285,N,00221.2078,E,1,7,1.25,116.3,M,48.0,M,,*59
$GPRMC,090357.000,A,4705.0285,N,00221.2078,E,38.543,345.13,100218,,,A*60
$GPGGA,090358.000,4705.0393,N,00221.2030,E,1,7,1.25,116.7,M,48.0,M,,*58
$GPRMC,090358.000,A,4705.0393,N,00221.2030,E,38.989,344.17,100218,,,A*6A
$GPGGA,090359.000,4705.0505,N,00221.1979,E,1,7,1.43,117.7,M,48.0,M,,*56
$GPRMC,090359.000,A,4705.0505,N,00221.1979,E,39.494,343.03,100218,,,A*67
$GPGGA,090400.000,4705.0614,N,00221.1927,E,1,8,1.13,118.8,M,48.0,M,,*5F
$GPRMC,090400.000,A,4705.0614,N,00221.1927,E,40.065,341.68,100218,,,A*6F
$GPGGA,090401.000,4705.0722,N,00221.1873,E,1,8,1.13,120.2,M,48.0,M,,*5B
$GPRMC,090401.000,A,4705.0722,N,00221.1873,E,40.079,341.41,100218,,,A*6C
$GPGGA,090402.000,4705.0829,N,00221.1818,E,1,8,1.13,121.3,M,48.0,M,,*51
$GPRMC,090402.000,A,4705.0829,N,00221.1818,E,41.447,340.28,100218,,,A*60
$GPGGA,090403.000,4705.0941,N,00221.1763,E,1,8,1.13,122.6,M,48.0,M,,*5A
$GPRMC,090403.000,A,4705.0941,N,00221.1763,E,40.613,339.75,100218,,,A*69
$GPGGA,090404.000,4705.1049,N,00221.1704,E,1,8,1.13,123.9,M,48.0,M,,*52
$GPRMC,090404.000,A,4705.1049,N,00221.1704,E,41.337,338.50,100218,,,A*6B
$GPGGA,090405.000,4705.1153,N,00221.1642,E,1,8,1.13,124.5,M,48.0,M,,*51
$GPRMC,090405.000,A,4705.1153,N,00221.1642,E,42.036,338.76,100218,,,A*66
$GPGGA,090406.000,4705.1260,N,00221.1576,E,1,8,1.13,125.1,M,48.0,M,,*50
$GPRMC,090406.000,A,4705.1260,N,00221.1576,E,42.370,337.52,100218,,,A*6A
$GPGGA,090407.000,4705.1366,N,00221.1515,E,1,8,1.13,124.8,M,48.0,M,,*5B
$GPRMC,090407.000,A,4705.1366,N,00221.1515,E,42.186,337.44,100218,,,A*65
$GPGGA,090408.000,4705.1475,N,00221.1451,E,1,8,1.13,125.7,M,48.0,M,,*5E
$GPRMC,090408.000,A,4705.1475,N,00221.1451,E,42.621,336.17,100218,,,A*63
$GPGGA,090409.000,4705.1582,N,00221.1385,E,1,8,1.13,125.7,M,48.0,M,,*58
$GPRMC,090409.000,A,4705.1582,N,00221.1385,E,42.563,336.45,100218,,,A*67
$GPGGA,090410.000,4705.1689,N,00221.1317,E,1,8,1.13,126.2,M,48.0,M,,*55
$GPRMC,090410.000,A,4705.1689,N,00221.1317,E,42.182,335.25,100218,,,A*62
$GPGGA,090411.000,4705.1797,N,00221.1251,E,1,8,0.99,125.9,M,48.0,M,,*52
$GPRMC,090411.000,A,4705.1797,N,00221.1251,E,43.640,334.59,100218,,,A*6C
$GPGGA,090412.000,4705.1904,N,00221.1178,E,1,8,1.13,127.0,M,48.0,M,,*55
$GPRMC,090412.000,A,4705.1904,N,00221.1178,E,43.107,334.19,100218,,,A*63
$GPGGA,090413.000,4705.2008,N,00221.1102,E,1,8,1.13,127.9,M,48.0,M,,*56
$GPRMC,090413.000,A,4705.2008,N,00221.1102,E,43.759,333.60,100218,,,A*6D
$GPGGA,090414.000,4705.2114,N,00221.1023,E,1,8,1.13,128.8,M,48.0,M,,*51
$GPRMC,090414.000,A,4705.2114,N,00221.1023,E,44.548,332.27,100218,,,A*63
$GPGGA,090415.000,4705.2219,N,00221.0937,E,1,8,1.13,129.8,M,48.0,M,,*52
$GPRMC,090415.000,A,4705.2219,N,00221.0937,E,43.870,331.88,100218,,,A*66
$GPGGA,090416.000,4705.2325,N,00221.0848,E,1,8,1.13,131.2,M,48.0,M,,*55
$GPRMC,090416.000,A,4705.2325,N,00221.0848,E,45.253,330.98,100218,,,A*6F
$GPGGA,090417.000,4705.2434,N,00221.0756,E,1,8,1.13,132.2,M,48.0,M,,*50
$GPRMC,090417.000,A,4705.2434,N,00221.0756,E,44.746,330.11,100218,,,A*68
$GPGGA,090418.000,4705.2540,N,00221.0664,E,1,8,1.13,132.7,M,48.0,M,,*58
$GPRMC,090418.000,A,4705.2540,N,00221.0664,E,44.698,329.86,100218,,,A*61
$GPGGA,090419.000,4705.2644,N,00221.0573,E,1,8,0.99,133.1,M,48.0,M,,*5F
$GPRMC,090419.000,A,4705.2644,N,00221.0573,E,44.881,330.63,100218,,,A*67
$GPGGA,090420.000,4705.2750,N,00221.0476,E,1,8,1.13,134.0,M,48.0,M,,*50
$GPRMC,090420.000,A,4705.2750,N,00221.0476,E,45.678,329.78,100218,,,A*66
$GPGGA,090421.000,4705.2854,N,00221.0386,E,1,8,0.99,133.3,M,48.0,M,,*55
$GPRMC,090421.000,A,4705.2854,N,00221.0386,E,44.492,329.58,100218,,,A*61
$GPGGA,090422.000,4705.2958,N,00221.0292,E,1,8,0.99,133.1,M,48.0,M,,*5D
$GPRMC,090422.000,A,4705.2958,N,00221.0292,E,44.759,329.32,100218,,,A*63
$GPGGA,090423.000,4705.3059,N,00221.0194,E,1,8,0.99,132.8,M,48.0,M,,*58
$GPRMC,090423.000,A,4705.3059,N,00221.0194,E,45.181,326.21,100218,,,A*61
$GPGGA,090424.000,4705.3159,N,00221.0098,E,1,8,0.99,131.7,M,48.0,M,,*5F
$GPRMC,090424.000,A,4705.3159,N,00221.0098,E,45.892,324.30,100218,,,A*63
$GPGGA,090425.000,4705.3264,N,00220.9997,E,1,8,1.13,132.2,M,48.0,M,,*58
$GPRMC,090425.000,A,4705.3264,N,00220.9997,E,45.480,324.91,100218,,,A*65
$GPGGA,090426.000,4705.3367,N,00220.9903,E,1,8,1.13,131.8,M,48.0,M,,*5D
$GPRMC,090426.000,A,4705.3367,N,00220.9903,E,44.738,324.17,100218,,,A*66
$GPGGA,090427.000,4705.3469,N,00220.9796,E,1,8,1.13,131.9,M,48.0,M,,*56
$GPRMC,090427.000,A,4705.3469,N,00220.9796,E,45.605,324.35,100218,,,A*62
$GPGGA,090428.000,4705.3570,N,00220.9694,E,1,8,1.13,131.2,M,48.0,M,,*58
$GPRMC,090428.000,A,4705.3570,N,00220.9694,E,45.249,322.79,100218,,,A*65
$GPGGA,090429.000,4705.3668,N,00220.9589,E,1,8,1.13,130.2,M,48.0,M,,*5D
$GPRMC,090429.000,A,4705.3668,N,00220.9589,E,44.802,322.30,100218,,,A*68
$GPGGA,090430.000,4705.3767,N,00220.9478,E,1,8,1.13,129.6,M,48.0,M,,*58
$GPRMC,090430.000,A,4705.3767,N,00220.9478,E,45.485,321.74,100218,,,A*60
$GPGGA,090431.000,4705.3865,N,00220.9370,E,1,8,1.13,128.9,M,48.0,M,,*55
$GPRMC,090431.000,A,4705.3865,N,00220.9370,E,44.175,321.04,100218,,,A*6F
$GPGGA,090432.000,4705.3964,N,00220.9258,E,1,8,1.13,128.6,M,48.0,M,,*52
$GPRMC,090432.000,A,4705.3964,N,00220.9258,E,44.558,320.36,100218,,,A*6C
$GPGGA,090433.000,4705.4062,N,00220.9141,E,1,8,1.13,129.4,M,48.0,M,,*53
$GPRMC,090433.000,A,4705.4062,N,00220.9141,E,44.539,319.30,100218,,,A*65
$GPGGA,090434.000,4705.4156,N,00220.9024,E,1,8,1.13,129.5,M,48.0,M,,*51
$GPRMC,090434.000,A,4705.4156,N,00220.9024,E,44.369,318.27,100218,,,A*62
$GPGGA,090435.000,4705.4247,N,00220.8904,E,1,8,1.13,129.7,M,48.0,M,,*5B
$GPRMC,090435.000,A,4705.4247,N,00220.8904,E,43.993,317.28,100218,,,A*62
$GPGGA,090436.000,4705.4336,N,00220.8784,E,1,8,1.13,129.4,M,48.0,M,,*5A
$GPRMC,090436.000,A,4705.4336,N,00220.8784,E,43.676,316.50,100218,,,A*6A
$GPGGA,090437.000,4705.4422,N,00220.8661,E,1,8,1.13,129.2,M,48.0,M,,*55
$GPRMC,090437.000,A,4705.4422,N,00220.8661,E,43.721,315.67,100218,,,A*67
$GPGGA,090438.000,4705.4507,N,00220.8536,E,1,8,1.13,128.9,M,48.0,M,,*57
$GPRMC,090438.000,A,4705.4507,N,00220.8536,E,43.751,315.04,100218,,,A*6D
$GPGGA,090439.000,4705.4591,N,00220.8411,E,1,8,1.13,128.4,M,48.0,M,,*50
$GPRMC,090439.000,A,4705.4591,N,00220.8411,E,43.333,314.77,100218,,,A*62
$GPGGA,090440.000,4705.4676,N,00220.8285,E,1,8,1.13,129.2,M,48.0,M,,*58
$GPRMC,090440.000,A,4705.4676,N,00220.8285,E,42.623,314.98,100218,,,A*69
$GPGGA,090441.000,4705.4760,N,00220.8160,E,1,8,0.99,130.3,M,48.0,M,,*5D
$GPRMC,090441.000,A,4705.4760,N,00220.8160,E,42.603,314.47,100218,,,A*66
$GPGGA,090442.000,4705.4843,N,00220.8035,E,1,8,1.13,130.8,M,48.0,M,,*59
$GPRMC,090442.000,A,4705.4843,N,00220.8035,E,42.587,313.69,100218,,,A*6E
$GPGGA,090443.000,4705.4923,N,00220.7908,E,1,8,1.13,131.3,M,48.0,M,,*5D
$GPRMC,090443.000,A,4705.4923,N,00220.7908,E,42.086,313.51,100218,,,A*6F
$GPGGA,090444.000,4705.5002,N,00220.7780,E,1,8,0.99,132.1,M,48.0,M,,*5D
$GPRMC,090444.000,A,4705.5002,N,00220.7780,E,41.915,311.90,100218,,,A*62
$GPGGA,090445.000,4705.5078,N,00220.7649,E,1,8,1.13,132.7,M,48.0,M,,*50
$GPRMC,090445.000,A,4705.5078,N,00220.7649,E,41.684,310.42,100218,,,A*63
$GPGGA,090446.000,4705.5153,N,00220.7518,E,1,8,1.13,133.5,M,48.0,M,,*5F
$GPRMC,090446.000,A,4705.5153,N,00220.7518,E,41.685,310.51,100218,,,A*6C
$GPGGA,090447.000,4705.5228,N,00220.7386,E,1,9,1.08,134.1,M,48.0,M,,*58
$GPRMC,090447.000,A,4705.5228,N,00220.7386,E,41.577,309.38,100218,,,A*6A
$GPGGA,090448.000,4705.5301,N,00220.7252,E,1,9,0.91,134.7,M,48.0,M,,*52
$GPRMC,090448.000,A,4705.5301,N,00220.7252,E,42.055,308.91,100218,,,A*63
$GPGGA,090449.000,4705.5372,N,00220.7118,E,1,9,1.08,135.1,M,48.0,M,,*5C
$GPRMC,090449.000,A,4705.5372,N,00220.7118,E,41.387,308.52,100218,,,A*6B
$GPGGA,090450.000,4705.5443,N,00220.6985,E,1,9,1.08,135.5,M,48.0,M,,*58
$GPRMC,090450.000,A,4705.5443,N,00220.6985,E,41.559,308.64,100218,,,A*6B
$GPGGA,090451.000,4705.5513,N,00220.6852,E,1,9,1.08,136.0,M,48.0,M,,*50
$GPRMC,090451.000,A,4705.5513,N,00220.6852,E,41.558,307.82,100218,,,A*63
$GPGGA,090452.000,4705.5583,N,00220.6719,E,1,9,1.08,136.0,M,48.0,M,,*5A
$GPRMC,090452.000,A,4705.5583,N,00220.6719,E,41.749,308.45,100218,,,A*6F
$GPGGA,090453.000,4705.5654,N,00220.6586,E,1,9,1.08,136.4,M,48.0,M,,*52
$GPRMC,090453.000,A,4705.5654,N,00220.6586,E,41.496,308.35,100218,,,A*65
$GPGGA,090454.000,4705.5725,N,00220.6452,E,1,9,1.08,137.1,M,48.0,M,,*5E
$GPRMC,090454.000,A,4705.5725,N,00220.6452,E,41.711,307.95,100218,,,A*64
$GPGGA,090455.000,4705.5797,N,00220.6319,E,1,9,1.08,137.7,M,48.0,M,,*58
$GPRMC,090455.000,A,4705.5797,N,00220.6319,E,41.934,308.96,100218,,,A*61
$GPGGA,090456.000,4705.5868,N,00220.6187,E,1,9,1.08,137.7,M,48.0,M,,*51
$GPRMC,090456.000,A,4705.5868,N,00220.6187,E,41.879,308.20,100218,,,A*6D
$GPGGA,090457.000,4705.5941,N,00220.6050,E,1,9,1.08,138.8,M,48.0,M,,*51
$GPRMC,090457.000,A,4705.5941,N,00220.6050,E,41.912,308.33,100218,,,A*63
$GPGGA,090458.000,4705.6014,N,00220.5916,E,1,9,1.08,139.5,M,48.0,M,,*50
$GPRMC,090458.000,A,4705.6014,N,00220.5916,E,41.974,309.27,100218,,,A*6A
$GPGGA,090459.000,4705.6087,N,00220.5783,E,1,9,1.08,139.5,M,48.0,M,,*59
$GPRMC,090459.000,A,4705.6087,N,00220.5783,E,42.453,308.03,100218,,,A*6F
$GPGGA,090500.000,4705.6159,N,00220.5648,E,1,9,1.08,139.4,M,48.0,M,,*51
$GPRMC,090500.000,A,4705.6159,N,00220.5648,E,42.950,308.15,100218,,,A*6F
$GPGGA,090501.000,4705.6233,N,00220.5511,E,1,9,1.08,139.2,M,48.0,M,,*56
$GPRMC,090501.000,A,4705.6233,N,00220.5511,E,43.614,308.99,100218,,,A*64
$GPGGA,090502.000,4705.6309,N,00220.5373,E,1,9,0.91,139.5,M,48.0,M,,*59
$GPRMC,090502.000,A,4705.6309,N,00220.5373,E,43.557,308.91,100218,,,A*61
$GPGGA,090503.000,4705.6384,N,00220.5236,E,1,9,0.91,139.8,M,48.0,M,,*50
$GPRMC,090503.000,A,4705.6384,N,00220.5236,E,43.143,308.61,100218,,,A*6B
$GPGGA,090504.000,4705.6459,N,00220.5099,E,1,9,1.08,139.9,M,48.0,M,,*57
$GPRMC,090504.000,A,4705.6459,N,00220.5099,E,43.787,308.82,100218,,,A*6F
$GPGGA,090505.000,4705.6535,N,00220.4959,E,1,9,1.08,140.1,M,48.0,M,,*5F
$GPRMC,090505.000,A,4705.6535,N,00220.4959,E,44.025,308.51,100218,,,A*67
$GPGGA,090506.000,4705.6611,N,00220.4820,E,1,9,1.08,140.2,M,48.0,M,,*55
$GPRMC,090506.000,A,4705.6611,N,00220.4820,E,44.052,308.49,100218,,,A*67
$GPGGA,090507.000,4705.6686,N,00220.4680,E,1,9,1.08,140.0,M,48.0,M,,*5C
$GPRMC,090507.000,A,4705.6686,N,00220.4680,E,44.102,308.41,100218,,,A*60
$GPGGA,090508.000,4705.6763,N,00220.4541,E,1,9,1.08,139.5,M,48.0,M,,*5C
$GPRMC,090508.000,A,4705.6763,N,00220.4541,E,44.437,309.07,100218,,,A*6B
$GPGGA,090509.000,4705.6839,N,00220.4402,E,1,9,0.91,138.5,M,48.0,M,,*5B
$GPRMC,090509.000,A,4705.6839,N,00220.4402,E,44.499,309.32,100218,,,A*6E
$GPGGA,090510.000,4705.6917,N,00220.4261,E,1,9,1.08,137.9,M,48.0,M,,*5F
$GPRMC,090510.000,A,4705.6917,N,00220.4261,E,44.527,307.99,100218,,,A*63
$GPGGA,090511.000,4705.6992,N,00220.4120,E,1,9,1.08,137.2,M,48.0,M,,*5E
$GPRMC,090511.000,A,4705.6992,N,00220.4120,E,44.294,308.26,100218,,,A*6D
$GPGGA,090512.000,4705.7068,N,00220.3980,E,1,9,1.08,136.5,M,48.0,M,,*53
$GPRMC,090512.000,A,4705.7068,N,00220.3980,E,44.479,308.60,100218,,,A*61
$GPGGA,090513.000,4705.7142,N,00220.3843,E,1,9,1.08,135.3,M,48.0,M,,*50
$GPRMC,090513.000,A,4705.7142,N,00220.3843,E,43.297,308.52,100218,,,A*67
$GPGGA,090514.000,4705.7216,N,00220.3705,E,1,9,1.08,134.7,M,48.0,M,,*5D
$GPRMC,090514.000,A,4705.7216,N,00220.3705,E,43.536,307.87,100218,,,A*64
$GPGGA,090515.000,4705.7292,N,00220.3568,E,1,9,1.08,134.5,M,48.0,M,,*5B
$GPRMC,090515.000,A,4705.7292,N,00220.3568,E,43.445,308.98,100218,,,A*64
$GPGGA,090516.000,4705.7367,N,00220.3432,E,1,9,1.08,134.7,M,48.0,M,,*5F
$GPRMC,090516.000,A,4705.7367,N,00220.3432,E,43.207,308.54,100218,,,A*62
$GPGGA,090517.000,4705.7439,N,00220.3298,E,1,9,1.08,134.5,M,48.0,M,,*56
$GPRMC,090517.000,A,4705.7439,N,00220.3298,E,41.701,308.30,100218,,,A*6A
$GPGGA,090518.000,4705.7511,N,00220.3166,E,1,9,1.08,134.3,M,48.0,M,,*56
$GPRMC,090518.000,A,4705.7511,N,00220.3166,E,41.370,308.55,100218,,,A*6D
$GPGGA,090519.000,4705.7583,N,00220.3035,E,1,9,1.08,134.4,M,48.0,M,,*5C
$GPRMC,090519.000,A,4705.7583,N,00220.3035,E,40.483,308.63,100218,,,A*6F
$GPGGA,090520.000,4705.7653,N,00220.2907,E,1,9,1.08,134.1,M,48.0,M,,*54
$GPRMC,090520.000,A,4705.7653,N,00220.2907,E,40.236,308.70,100218,,,A*68
$GPGGA,090521.000,4705.7721,N,00220.2782,E,1,9,1.08,133.8,M,48.0,M,,*5C
$GPRMC,090521.000,A,4705.7721,N,00220.2782,E,39.940,308.74,100218,,,A*6E
$GPGGA,090522.000,4705.7789,N,00220.2660,E,1,9,0.91,133.4,M,48.0,M,,*5D
$GPRMC,090522.000,A,4705.7789,N,00220.2660,E,39.523,309.86,100218,,,A*67
$GPGGA,090523.000,4705.7858,N,00220.2541,E,1,9,1.08,133.1,M,48.0,M,,*5B
$GPRMC,090523.000,A,4705.7858,N,00220.2541,E,38.334,311.11,100218,,,A*63
$GPGGA,090524.000,4705.7927,N,00220.2428,E,1,9,1.08,133.0,M,48.0,M,,*5A
$GPRMC,090524.000,A,4705.7927,N,00220.2428,E,38.534,312.44,100218,,,A*66
$GPGGA,090525.000,4705.7997,N,00220.2319,E,1,9,1.08,133.1,M,48.0,M,,*54
$GPRMC,090525.000,A,4705.7997,N,00220.2319,E,36.766,313.07,100218,,,A*64
$GPGGA,090526.000,4705.8066,N,00220.2214,E,1,9,1.08,132.8,M,48.0,M,,*5B
$GPRMC,090526.000,A,4705.8066,N,00220.2214,E,36.106,314.93,100218,,,A*69
$GPGGA,090527.000,4705.8137,N,00220.2111,E,1,9,1.08,132.6,M,48.0,M,,*57
$GPRMC,090527.000,A,4705.8137,N,00220.2111,E,35.873,315.07,100218,,,A*6F
$GPGGA,090528.000,4705.8207,N,00220.2011,E,1,8,1.15,132.6,M,48.0,M,,*54
$GPRMC,090528.000,A,4705.8207,N,00220.2011,E,35.324,317.06,100218,,,A*6B
$GPGGA,090529.000,4705.8279,N,00220.1915,E,1,8,1.15,132.5,M,48.0,M,,*51
$GPRMC,090529.000,A,4705.8279,N,00220.1915,E,34.970,318.14,100218,,,A*6B
$GPGGA,090530.000,4705.8351,N,00220.1826,E,1,9,1.08,132.2,M,48.0,M,,*59
$GPRMC,090530.000,A,4705.8351,N,00220.1826,E,34.169,320.97,100218,,,A*69
$GPGGA,090531.000,4705.8424,N,00220.1742,E,1,9,1.08,132.0,M,48.0,M,,*52
$GPRMC,090531.000,A,4705.8424,N,00220.1742,E,33.528,322.72,100218,,,A*6F
$GPGGA,090532.000,4705.8497,N,00220.1662,E,1,9,0.91,131.7,M,48.0,M,,*5F
$GPRMC,090532.000,A,4705.8497,N,00220.1662,E,32.387,323.97,100218,,,A*6F
$GPGGA,090533.000,4705.8570,N,00220.1586,E,1,9,0.91,131.6,M,48.0,M,,*5E
$GPRMC,090533.000,A,4705.8570,N,00220.1586,E,31.645,323.63,100218,,,A*6C
$GPGGA,090534.000,4705.8639,N,00220.1509,E,1,9,1.08,131.3,M,48.0,M,,*54
$GPRMC,090534.000,A,4705.8639,N,00220.1509,E,31.288,323.53,100218,,,A*64
$GPGGA,090535.000,4705.8707,N,00220.1438,E,1,9,1.08,130.9,M,48.0,M,,*51
$GPRMC,090535.000,A,4705.8707,N,00220.1438,E,30.966,324.77,100218,,,A*61
$GPGGA,090536.000,4705.8772,N,00220.1370,E,1,9,1.08,130.4,M,48.0,M,,*56
$GPRMC,090536.000,A,4705.8772,N,00220.1370,E,30.468,323.96,100218,,,A*60
$GPGGA,090537.000,4705.8833,N,00220.1309,E,1,9,1.08,129.5,M,48.0,M,,*5A
$GPRMC,090537.000,A,4705.8833,N,00220.1309,E,27.100,326.27,100218,,,A*67
$GPGGA,090538.000,4705.8894,N,00220.1252,E,1,9,1.08,129.2,M,48.0,M,,*50
$GPRMC,090538.000,A,4705.8894,N,00220.1252,E,25.296,328.15,100218,,,A*6B
$GPGGA,090539.000,4705.8951,N,00220.1201,E,1,9,1.08,129.2,M,48.0,M,,*5F
$GPRMC,090539.000,A,4705.8951,N,00220.1201,E,23.235,328.82,100218,,,A*65
$GPGGA,090540.000,4705.9004,N,00220.1157,E,1,9,1.08,129.2,M,48.0,M,,*59
$GPRMC,090540.000,A,4705.9004,N,00220.1157,E,21.446,331.44,100218,,,A*61
$GPGGA,090541.000,4705.9058,N,00220.1123,E,1,9,1.08,129.6,M,48.0,M,,*56
$GPRMC,090541.000,A,4705.9058,N,00220.1123,E,20.451,336.89,100218,,,A*6B
$GPGGA,090542.000,4705.9112,N,00220.1098,E,1,9,1.08,130.0,M,48.0,M,,*55
$GPRMC,090542.000,A,4705.9112,N,00220.1098,E,19.705,344.42,100218,,,A*6C
$GPGGA,090543.000,4705.9164,N,00220.1081,E,1,9,1.08,130.3,M,48.0,M,,*5E
$GPRMC,090543.000,A,4705.9164,N,00220.1081,E,19.038,349.89,100218,,,A*67
$GPGGA,090544.000,4705.9216,N,00220.1072,E,1,9,1.08,131.3,M,48.0,M,,*52
$GPRMC,090544.000,A,4705.9216,N,00220.1072,E,18.829,354.31,100218,,,A*6C
$GPGGA,090545.000,4705.9267,N,00220.1064,E,1,9,0.91,131.3,M,48.0,M,,*53
$GPRMC,090545.000,A,4705.9267,N,00220.1064,E,17.840,352.89,100218,,,A*69
$GPGGA,090546.000,4705.9313,N,00220.1047,E,1,9,1.08,131.5,M,48.0,M,,*54
$GPRMC,090546.000,A,4705.9313,N,00220.1047,E,16.707,342.89,100218,,,A*65
$GPGGA,090547.000,4705.9354,N,00220.1019,E,1,9,1.08,130.9,M,48.0,M,,*50
$GPRMC,090547.000,A,4705.9354,N,00220.1019,E,17.235,327.96,100218,,,A*64
$GPGGA,090548.000,4705.9391,N,00220.0970,E,1,9,1.08,132.0,M,48.0,M,,*5A
$GPRMC,090548.000,A,4705.9391,N,00220.0970,E,17.632,311.95,100218,,,A*60
$GPGGA,090549.000,4705.9417,N,00220.0912,E,1,9,1.08,131.7,M,48.0,M,,*52
$GPRMC,090549.000,A,4705.9417,N,00220.0912,E,18.168,298.99,100218,,,A*67
$GPGGA,090550.000,4705.9442,N,00220.0841,E,1,9,1.08,132.2,M,48.0,M,,*5B
$GPRMC,090550.000,A,4705.9442,N,00220.0841,E,19.805,297.31,100218,,,A*66
$GPGGA,090551.000,4705.9472,N,00220.0771,E,1,9,1.08,131.9,M,48.0,M,,*5D
$GPRMC,090551.000,A,4705.9472,N,00220.0771,E,21.156,303.63,100218,,,A*67
$GPGGA,090552.000,4705.9512,N,00220.0701,E,1,9,1.08,131.0,M,48.0,M,,*57
$GPRMC,090552.000,A,4705.9512,N,00220.0701,E,23.892,310.72,100218,,,A*65
$GPGGA,090553.000,4705.9569,N,00220.0643,E,1,9,1.08,131.6,M,48.0,M,,*5B
$GPRMC,090553.000,A,4705.9569,N,00220.0643,E,25.188,326.58,100218,,,A*66
$GPGGA,090554.000,4705.9631,N,00220.0593,E,1,9,1.08,131.8,M,48.0,M,,*52
$GPRMC,090554.000,A,4705.9631,N,00220.0593,E,25.825,332.41,100218,,,A*62
$GPGGA,090555.000,4705.9696,N,00220.0545,E,1,9,1.08,131.8,M,48.0,M,,*55
$GPRMC,090555.000,A,4705.9696,N,00220.0545,E,26.701,333.70,100218,,,A*6C
$GPGGA,090556.000,4705.9764,N,00220.0495,E,1,9,1.08,132.1,M,48.0,M,,*5C
$GPRMC,090556.000,A,4705.9764,N,00220.0495,E,27.670,333.72,100218,,,A*6B
$GPGGA,090557.000,4705.9836,N,00220.0444,E,1,9,1.08,132.2,M,48.0,M,,*5A
$GPRMC,090557.000,A,4705.9836,N,00220.0444,E,29.710,333.66,100218,,,A*62
$GPGGA,090558.000,4705.9912,N,00220.0390,E,1,9,1.08,132.1,M,48.0,M,,*5F
$GPRMC,090558.000,A,4705.9912,N,00220.0390,E,30.477,334.46,100218,,,A*6B
$GPGGA,090559.000,4705.9989,N,00220.0334,E,1,9,1.08,132.2,M,48.0,M,,*51
$GPRMC,090559.000,A,4705.9989,N,00220.0334,E,31.590,333.71,100218,,,A*6C
$GPGGA,090600.000,4706.0070,N,00220.0279,E,1,9,1.08,132.1,M,48.0,M,,*50
$GPRMC,090600.000,A,4706.0070,N,00220.0279,E,32.772,336.55,100218,,,A*60
$GPGGA,090601.000,4706.0155,N,00220.0229,E,1,9,0.91,132.2,M,48.0,M,,*50
$GPRMC,090601.000,A,4706.0155,N,00220.0229,E,33.322,338.29,100218,,,A*67
$GPGGA,090602.000,4706.0243,N,00220.0180,E,1,9,1.08,132.4,M,48.0,M,,*50
$GPRMC,090602.000,A,4706.0243,N,00220.0180,E,34.557,339.96,100218,,,A*66
$GPGGA,090603.000,4706.0335,N,00220.0134,E,1,9,1.08,132.4,M,48.0,M,,*5E
$GPRMC,090603.000,A,4706.0335,N,00220.0134,E,34.991,341.09,100218,,,A*67
$GPGGA,090604.000,4706.0430,N,00220.0087,E,1,9,1.08,132.3,M,48.0,M,,*55
$GPRMC,090604.000,A,4706.0430,N,00220.0087,E,36.392,341.61,100218,,,A*6E
$GPGGA,090605.000,4706.0527,N,00220.0041,E,1,9,1.08,131.9,M,48.0,M,,*50
$GPRMC,090605.000,A,4706.0527,N,00220.0041,E,37.309,341.56,100218,,,A*65
$GPGGA,090606.000,4706.0627,N,00219.9994,E,1,9,1.08,131.7,M,48.0,M,,*5C
$GPRMC,090606.000,A,4706.0627,N,00219.9994,E,38.464,342.48,100218,,,A*68
$GPGGA,090607.000,4706.0730,N,00219.9945,E,1,9,1.08,131.4,M,48.0,M,,*55
$GPRMC,090607.000,A,4706.0730,N,00219.9945,E,39.493,341.27,100218,,,A*61
$GPGGA,090608.000,4706.0834,N,00219.9894,E,1,9,0.91,131.4,M,48.0,M,,*5D
$GPRMC,090608.000,A,4706.0834,N,00219.9894,E,39.893,341.91,100218,,,A*69
$GPGGA,090609.000,4706.0940,N,00219.9842,E,1,9,1.08,131.5,M,48.0,M,,*55
$GPRMC,090609.000,A,4706.0940,N,00219.9842,E,40.355,341.78,100218,,,A*69
$GPGGA,090610.000,4706.1047,N,00219.9793,E,1,9,1.08,131.4,M,48.0,M,,*50
$GPRMC,090610.000,A,4706.1047,N,00219.9793,E,40.717,342.90,100218,,,A*6A
$GPGGA,090611.000,4706.1155,N,00219.9743,E,1,9,0.91,131.3,M,48.0,M,,*58
$GPRMC,090611.000,A,4706.1155,N,00219.9743,E,41.029,341.95,100218,,,A*69
$GPGGA,090612.000,4706.1265,N,00219.9691,E,1,9,1.08,131.3,M,48.0,M,,*54
$GPRMC,090612.000,A,4706.1265,N,00219.9691,E,41.784,341.87,100218,,,A*67
$GPGGA,090613.000,4706.1375,N,00219.9639,E,1,9,1.08,131.5,M,48.0,M,,*51
$GPRMC,090613.000,A,4706.1375,N,00219.9639,E,42.224,341.96,100218,,,A*68
$GPGGA,090614.000,4706.1488,N,00219.9587,E,1,9,1.08,131.7,M,48.0,M,,*57
$GPRMC,090614.000,A,4706.1488,N,00219.9587,E,42.261,342.30,100218,,,A*62
$GPGGA,090615.000,4706.1601,N,00219.9534,E,1,9,1.08,131.9,M,48.0,M,,*53
$GPRMC,090615.000,A,4706.1601,N,00219.9534,E,43.406,341.97,100218,,,A*60
$GPGGA,090616.000,4706.1717,N,00219.9479,E,1,9,1.08,131.9,M,48.0,M,,*5E
$GPRMC,090616.000,A,4706.1717,N,00219.9479,E,43.913,341.94,100218,,,A*67
$GPGGA,090617.000,4706.1834,N,00219.9425,E,1,9,1.08,132.1,M,48.0,M,,*53
$GPRMC,090617.000,A,4706.1834,N,00219.9425,E,44.738,342.44,100218,,,A*6F
$GPGGA,090618.000,4706.1953,N,00219.9372,E,1,9,1.08,132.1,M,48.0,M,,*59
$GPRMC,090618.000,A,4706.1953,N,00219.9372,E,44.296,342.98,100218,,,A*65
$GPGGA,090619.000,4706.2071,N,00219.9320,E,1,9,1.08,133.1,M,48.0,M,,*54
$GPRMC,090619.000,A,4706.2071,N,00219.9320,E,44.607,345.01,100218,,,A*62
$GPGGA,090620.000,4706.2191,N,00219.9268,E,1,9,1.08,130.9,M,48.0,M,,*57
$GPRMC,090620.000,A,4706.2191,N,00219.9268,E,44.778,344.47,100218,,,A*60
$GPGGA,090621.000,4706.2312,N,00219.9212,E,1,9,1.09,130.3,M,48.0,M,,*59
$GPRMC,090621.000,A,4706.2312,N,00219.9212,E,45.775,343.28,100218,,,A*67
$GPGGA,090622.000,4706.2434,N,00219.9153,E,1,9,0.91,130.8,M,48.0,M,,*54
$GPRMC,090622.000,A,4706.2434,N,00219.9153,E,47.614,342.32,100218,,,A*6F
$GPGGA,090623.000,4706.2560,N,00219.9096,E,1,9,1.09,129.7,M,48.0,M,,*5A
$GPRMC,090623.000,A,4706.2560,N,00219.9096,E,47.443,343.57,100218,,,A*64
$GPGGA,090624.000,4706.2686,N,00219.9039,E,1,9,1.08,128.9,M,48.0,M,,*5D
$GPRMC,090624.000,A,4706.2686,N,00219.9039,E,47.488,343.42,100218,,,A*6E
$GPGGA,090625.000,4706.2813,N,00219.8982,E,1,9,1.09,128.1,M,48.0,M,,*5F
$GPRMC,090625.000,A,4706.2813,N,00219.8982,E,48.388,342.83,100218,,,A*61
$GPGGA,090626.000,4706.2942,N,00219.8921,E,1,9,1.09,127.0,M,48.0,M,,*5E
$GPRMC,090626.000,A,4706.2942,N,00219.8921,E,48.549,342.75,100218,,,A*6C
$GPGGA,090627.000,4706.3071,N,00219.8862,E,1,9,1.09,125.6,M,48.0,M,,*55
$GPRMC,090627.000,A,4706.3071,N,00219.8862,E,48.130,342.60,100218,,,A*6D
$GPGGA,090628.000,4706.3199,N,00219.8799,E,1,9,1.09,125.2,M,48.0,M,,*52
$GPRMC,090628.000,A,4706.3199,N,00219.8799,E,48.113,343.20,100218,,,A*6A
$GPGGA,090629.000,4706.3328,N,00219.8738,E,1,9,1.09,123.8,M,48.0,M,,*5C
$GPRMC,090629.000,A,4706.3328,N,00219.8738,E,47.407,343.47,100218,,,A*66
$GPGGA,090630.000,4706.3461,N,00219.8669,E,1,9,0.91,125.7,M,48.0,M,,*52
$GPRMC,090630.000,A,4706.3461,N,00219.8669,E,49.523,342.42,100218,,,A*6C
$GPGGA,090631.000,4706.3591,N,00219.8605,E,1,9,0.91,124.7,M,48.0,M,,*56
$GPRMC,090631.000,A,4706.3591,N,00219.8605,E,49.184,341.38,100218,,,A*6E
$GPGGA,090632.000,4706.3721,N,00219.8541,E,1,9,0.91,123.8,M,48.0,M,,*57
$GPRMC,090632.000,A,4706.3721,N,00219.8541,E,49.189,341.38,100218,,,A*6A
$GPGGA,090633.000,4706.3851,N,00219.8477,E,1,9,0.91,122.8,M,48.0,M,,*5B
$GPRMC,090633.000,A,4706.3851,N,00219.8477,E,49.205,341.39,100218,,,A*61
$GPGGA,090634.000,4706.3981,N,00219.8413,E,1,9,0.91,121.9,M,48.0,M,,*50
$GPRMC,090634.000,A,4706.3981,N,00219.8413,E,49.232,341.40,100218,,,A*62
$GPGGA,090635.000,4706.4111,N,00219.8349,E,1,7,0.97,120.9,M,48.0,M,,*56
$GPRMC,090635.000,A,4706.4111,N,00219.8349,E,49.295,341.48,100218,,,A*68
$GPGGA,090636.000,4706.4244,N,00219.8286,E,1,7,0.97,119.9,M,48.0,M,,*5E
$GPRMC,090636.000,A,4706.4244,N,00219.8286,E,49.532,341.57,100218,,,A*6E
$GPGGA,090637.000,4706.4377,N,00219.8222,E,1,6,1.16,119.1,M,48.0,M,,*51
$GPRMC,090637.000,A,4706.4377,N,00219.8222,E,49.747,341.68,100218,,,A*6C
$GPGGA,090638.000,4706.4355,N,00219.8041,E,1,8,1.04,122.3,M,48.0,M,,*5E
$GPRMC,090638.000,A,4706.4355,N,00219.8041,E,41.258,325.74,100218,,,A*68
$GPGGA,090639.000,4706.4413,N,00219.7941,E,1,8,1.13,122.8,M,48.0,M,,*51
$GPRMC,090639.000,A,4706.4413,N,00219.7941,E,38.650,321.73,100218,,,A*6B
$GPGGA,090640.000,4706.4844,N,00219.7809,E,1,4,1.54,114.0,M,48.0,M,,*5E
$GPRMC,090640.000,A,4706.4844,N,00219.7809,E,32.177,307.66,100218,,,A*6E
$GPGGA,090641.000,4706.5723,N,00219.8073,E,1,3,3.57,-23.9,M,48.0,M,,*4D
$GPRMC,090641.000,A,4706.5723,N,00219.8073,E,38.107,332.34,100218,,,A*66
$GPGGA,090642.000,4706.5604,N,00219.8165,E,1,4,1.54,-29.3,M,48.0,M,,*4A
$GPRMC,090642.000,A,4706.5604,N,00219.8165,E,44.514,338.17,100218,,,A*61
$GPGGA,090643.000,4706.5779,N,00219.8023,E,1,7,1.24,-9.0,M,48.0,M,,*76
$GPRMC,090643.000,A,4706.5779,N,00219.8023,E,47.068,344.75,100218,,,A*6A
$GPGGA,090644.000,4706.5869,N,00219.7998,E,1,8,0.99,-12.6,M,48.0,M,,*4D
$GPRMC,090644.000,A,4706.5869,N,00219.7998,E,48.103,348.03,100218,,,A*6B
$GPGGA,090645.000,4706.5989,N,00219.7992,E,1,8,0.99,-12.1,M,48.0,M,,*4E
$GPRMC,090645.000,A,4706.5989,N,00219.7992,E,48.869,348.92,100218,,,A*62
$GPGGA,090646.000,4706.6120,N,00219.7957,E,1,8,0.99,-10.8,M,48.0,M,,*47
$GPRMC,090646.000,A,4706.6120,N,00219.7957,E,49.316,349.43,100218,,,A*6F
$GPGGA,090647.000,4706.6250,N,00219.7921,E,1,8,0.99,-9.2,M,48.0,M,,*71
$GPRMC,090647.000,A,4706.6250,N,00219.7921,E,49.302,349.42,100218,,,A*6F
$GPGGA,090648.000,4706.6381,N,00219.7884,E,1,8,0.99,-7.7,M,48.0,M,,*76
$GPRMC,090648.000,A,4706.6381,N,00219.7884,E,49.266,349.42,100218,,,A*60
$GPGGA,090649.000,4706.6512,N,00219.7847,E,1,8,0.99,-6.2,M,48.0,M,,*70
$GPRMC,090649.000,A,4706.6512,N,00219.7847,E,49.223,349.40,100218,,,A*61
$GPGGA,090650.000,4706.6641,N,00219.7805,E,1,7,1.11,-4.9,M,48.0,M,,*7C
$GPRMC,090650.000,A,4706.6641,N,00219.7805,E,49.155,349.16,100218,,,A*6B
$GPGGA,090651.000,4706.6770,N,00219.7759,E,1,7,1.11,-3.9,M,48.0,M,,*7F
$GPRMC,090651.000,A,4706.6770,N,00219.7759,E,49.081,348.80,100218,,,A*69
$GPGGA,090652.000,4706.6899,N,00219.7711,E,1,7,1.11,-3.4,M,48.0,M,,*75
$GPRMC,090652.000,A,4706.6899,N,00219.7711,E,48.920,348.36,100218,,,A*60
$GPGGA,090653.000,4706.7297,N,00219.7656,E,1,6,1.22,-8.5,M,48.0,M,,*78
$GPRMC,090653.000,A,4706.7297,N,00219.7656,E,48.920,348.36,100218,,,A*66
$GPGGA,090654.000,4706.7430,N,00219.7616,E,0,0,,-7.2,M,48.0,M,,*60
$GPRMC,090654.000,V,4706.7430,N,00219.7616,E,0.000,348.36,100218,,,N*41
$GPGGA,090655.000,4706.9603,N,00219.6120,E,0,0,,-44.9,M,48.0,M,,*52
$GPRMC,090655.000,V,4706.9603,N,00219.6120,E,53.671,349.17,100218,,,N*7B
$GPGGA,090656.000,4706.7216,N,00219.5838,E,0,0,,0.0,M,48.0,M,,*48
$GPRMC,090656.000,V,4706.7216,N,00219.5838,E,34.263,6.73,100218,,,N*79
$GPGGA,090657.000,4706.6918,N,00219.8039,E,0,0,,0.0,M,48.0,M,,*49
$GPRMC,090657.000,V,4706.6918,N,00219.8039,E,43.324,9.08,100218,,,N*79
$GPGGA,090658.000,4706.7134,N,00219.8199,E,0,0,,-154.2,M,48.0,M,,*65
$GPRMC,090658.000,V,4706.7134,N,00219.8199,E,47.825,8.65,100218,,,N*7E
$GPGGA,090659.000,4706.7222,N,00219.8304,E,1,6,1.35,-97.1,M,48.0,M,,*45
$GPRMC,090659.000,A,4706.7222,N,00219.8304,E,48.612,9.18,100218,,,A*6B
$GPGGA,090700.000,4706.7349,N,00219.8123,E,1,7,1.09,-33.8,M,48.0,M,,*4A
$GPRMC,090700.000,A,4706.7349,N,00219.8123,E,48.406,9.38,100218,,,A*68
$GPGGA,090701.000,4706.7465,N,00219.8081,E,1,8,1.01,-9.8,M,48.0,M,,*75
$GPRMC,090701.000,A,4706.7465,N,00219.8081,E,48.873,9.64,100218,,,A*6E
$GPGGA,090702.000,4706.7575,N,00219.8043,E,1,8,1.01,13.6,M,48.0,M,,*60
$GPRMC,090702.000,A,4706.7575,N,00219.8043,E,47.792,10.18,100218,,,A*5F
$GPGGA,090703.000,4706.7692,N,00219.7994,E,1,8,1.13,40.7,M,48.0,M,,*63
$GPRMC,090703.000,A,4706.7692,N,00219.7994,E,48.494,9.53,100218,,,A*65
$GPGGA,090704.000,4706.7883,N,00219.8027,E,1,8,1.13,64.9,M,48.0,M,,*6C
$GPRMC,090704.000,A,4706.7883,N,00219.8027,E,47.493,9.39,100218,,,A*66
$GPGGA,090705.000,4706.8044,N,00219.8052,E,1,7,1.41,80.3,M,48.0,M,,*6B
$GPRMC,090705.000,A,4706.8044,N,00219.8052,E,48.166,7.32,100218,,,A*6C
$GPGGA,090706.000,4706.8194,N,00219.8076,E,1,7,1.41,91.9,M,48.0,M,,*68
$GPRMC,090706.000,A,4706.8194,N,00219.8076,E,48.237,8.41,100218,,,A*69
$GPGGA,090707.000,4706.8335,N,00219.8102,E,1,7,1.41,99.1,M,48.0,M,,*62
$GPRMC,090707.000,A,4706.8335,N,00219.8102,E,48.050,8.19,100218,,,A*6D
$GPGGA,090708.000,4706.8476,N,00219.8127,E,1,8,1.13,104.8,M,48.0,M,,*5E
$GPRMC,090708.000,A,4706.8476,N,00219.8127,E,48.518,8.27,100218,,,A*61
$GPGGA,090709.000,4706.8612,N,00219.8149,E,1,8,1.13,108.9,M,48.0,M,,*5A
$GPRMC,090709.000,A,4706.8612,N,00219.8149,E,48.054,8.06,100218,,,A*66
$GPGGA,090710.000,4706.8742,N,00219.8178,E,1,8,1.13,111.6,M,48.0,M,,*53
$GPRMC,090710.000,A,4706.8742,N,00219.8178,E,48.024,8.64,100218,,,A*6B
$GPGGA,090711.000,4706.8875,N,00219.8206,E,1,8,1.13,114.6,M,48.0,M,,*56
$GPRMC,090711.000,A,4706.8875,N,00219.8206,E,47.325,8.04,100218,,,A*60
$GPGGA,090712.000,4706.9009,N,00219.8225,E,1,8,1.13,119.8,M,48.0,M,,*55
$GPRMC,090712.000,A,4706.9009,N,00219.8225,E,47.664,8.01,100218,,,A*65
$GPGGA,090713.000,4706.9141,N,00219.8248,E,1,8,1.13,123.2,M,48.0,M,,*51
$GPRMC,090713.000,A,4706.9141,N,00219.8248,E,47.796,7.79,100218,,,A*6E
$GPGGA,090714.000,4706.9276,N,00219.8275,E,1,8,1.13,126.1,M,48.0,M,,*59
$GPRMC,090714.000,A,4706.9276,N,00219.8275,E,48.026,7.82,100218,,,A*67
$GPGGA,090715.000,4706.9412,N,00219.8301,E,1,8,1.13,129.9,M,48.0,M,,*59
$GPRMC,090715.000,A,4706.9412,N,00219.8301,E,48.022,7.37,100218,,,A*6A
$GPGGA,090716.000,4706.9546,N,00219.8332,E,1,8,1.01,132.2,M,48.0,M,,*58
$GPRMC,090716.000,A,4706.9546,N,00219.8332,E,48.026,8.19,100218,,,A*6E
$GPGGA,090717.000,4706.9681,N,00219.8361,E,1,8,1.13,134.9,M,48.0,M,,*59
$GPRMC,090717.000,A,4706.9681,N,00219.8361,E,48.014,7.70,100218,,,A*60
$GPGGA,090718.000,4706.9812,N,00219.8389,E,1,8,1.13,137.7,M,48.0,M,,*59
$GPRMC,090718.000,A,4706.9812,N,00219.8389,E,47.231,8.24,100218,,,A*69
$GPGGA,090719.000,4706.9945,N,00219.8421,E,1,8,1.13,139.3,M,48.0,M,,*54
$GPRMC,090719.000,A,4706.9945,N,00219.8421,E,48.060,8.61,100218,,,A*66
$GPGGA,090720.000,4707.0078,N,00219.8449,E,1,8,1.13,141.8,M,48.0,M,,*5B
$GPRMC,090720.000,A,4707.0078,N,00219.8449,E,47.616,7.58,100218,,,A*60
$GPGGA,090721.000,4707.0209,N,00219.8486,E,1,8,1.13,141.4,M,48.0,M,,*51
$GPRMC,090721.000,A,4707.0209,N,00219.8486,E,48.097,9.20,100218,,,A*67
$GPGGA,090722.000,4707.0342,N,00219.8526,E,1,8,1.13,142.3,M,48.0,M,,*53
$GPRMC,090722.000,A,4707.0342,N,00219.8526,E,48.621,10.72,100218,,,A*55
$GPGGA,090723.000,4707.0467,N,00219.8577,E,1,8,1.01,138.4,M,48.0,M,,*5F
$GPRMC,090723.000,A,4707.0467,N,00219.8577,E,47.617,12.77,100218,,,A*5D
$GPGGA,090724.000,4707.0596,N,00219.8627,E,1,8,1.13,139.2,M,48.0,M,,*55
$GPRMC,090724.000,A,4707.0596,N,00219.8627,E,47.681,14.82,100218,,,A*50
$GPGGA,090725.000,4707.0726,N,00219.8680,E,1,8,1.13,140.8,M,48.0,M,,*54
$GPRMC,090725.000,A,4707.0726,N,00219.8680,E,47.642,15.49,100218,,,A*5C
$GPGGA,090726.000,4707.0854,N,00219.8746,E,1,8,1.13,140.7,M,48.0,M,,*59
$GPRMC,090726.000,A,4707.0854,N,00219.8746,E,47.888,16.76,100218,,,A*59
$GPGGA,090727.000,4707.0979,N,00219.8812,E,1,9,1.09,137.5,M,48.0,M,,*50
$GPRMC,090727.000,A,4707.0979,N,00219.8812,E,48.777,18.61,100218,,,A*50
$GPGGA,090728.000,4707.1101,N,00219.8891,E,1,9,1.09,134.9,M,48.0,M,,*5D
$GPRMC,090728.000,A,4707.1101,N,00219.8891,E,48.308,20.67,100218,,,A*53
$GPGGA,090729.000,4707.1223,N,00219.8981,E,1,9,1.09,130.3,M,48.0,M,,*51
$GPRMC,090729.000,A,4707.1223,N,00219.8981,E,48.622,21.64,100218,,,A*5E
$GPGGA,090730.000,4707.1347,N,00219.9071,E,1,9,1.09,127.0,M,48.0,M,,*58
$GPRMC,090730.000,A,4707.1347,N,00219.9071,E,48.739,23.61,100218,,,A*5E
$GPGGA,090731.000,4707.1472,N,00219.9156,E,1,9,1.09,125.8,M,48.0,M,,*56
$GPRMC,090731.000,A,4707.1472,N,00219.9156,E,49.488,24.53,100218,,,A*54
$GPGGA,090732.000,4707.1595,N,00219.9244,E,1,9,1.09,126.2,M,48.0,M,,*54
$GPRMC,090732.000,A,4707.1595,N,00219.9244,E,49.555,25.90,100218,,,A*50
$GPGGA,090733.000,4707.1719,N,00219.9338,E,1,9,1.09,126.3,M,48.0,M,,*58
$GPRMC,090733.000,A,4707.1719,N,00219.9338,E,50.427,28.59,100218,,,A*59
$GPGGA,090734.000,4707.1844,N,00219.9436,E,1,9,1.09,127.1,M,48.0,M,,*52
$GPRMC,090734.000,A,4707.1844,N,00219.9436,E,50.736,29.15,100218,,,A*5A
$GPGGA,090735.000,4707.1967,N,00219.9540,E,1,9,1.09,127.6,M,48.0,M,,*54
$GPRMC,090735.000,A,4707.1967,N,00219.9540,E,50.753,31.35,100218,,,A*53
$GPGGA,090736.000,4707.2086,N,00219.9650,E,1,9,1.09,127.3,M,48.0,M,,*55
$GPRMC,090736.000,A,4707.2086,N,00219.9650,E,50.560,32.31,100218,,,A*52
$GPGGA,090737.000,4707.2203,N,00219.9764,E,1,9,1.09,127.6,M,48.0,M,,*58
